,city_name,country,cloudiness,humidity,lat,lng,temperature,max_temp,wind speed,date
0,tuktoyaktuk,ca,75.0,77.0,69.44,-133.03,-2.21,-2.21,18.34,1554318000
1,yellowknife,ca,20.0,59.0,62.45,-114.38,5.02,7.0,12.75,1554322846
2,castro,cl,90.0,93.0,-42.48,-73.76,51.8,51.8,14.99,1554318000
3,albany,au,75.0,100.0,-35.02,117.88,60.8,60.8,3.36,1554318000
4,lebu,cl,100.0,95.0,-37.62,-73.65,56.34,56.34,15.68,1554322852
5,qaanaaq,gl,64.0,88.0,77.48,-69.36,11.97,11.97,5.95,1554322833
6,sibolga,id,68.0,100.0,1.74,98.78,70.02,70.02,1.59,1554322707
7,shilong,cn,75.0,88.0,23.11,113.84,70.74,75.0,6.71,1554322846
8,atuona,pf,48.0,100.0,-9.8,-139.03,81.63,81.63,15.35,1554322853
9,punta arenas,cl,40.0,52.0,-53.16,-70.91,45.03,46.4,31.09,1554322348
10,cockburn town,bs,0.0,93.0,24.03,-74.52,78.84,78.84,10.09,1554322759
11,ushuaia,ar,75.0,70.0,-54.81,-68.31,44.6,44.6,27.51,1554318000
12,mosquera,co,40.0,63.0,4.71,-74.23,66.2,66.2,14.99,1554318000
13,busselton,au,56.0,50.0,-33.64,115.35,63.66,64.0,18.59,1554322584
15,punta arenas,cl,40.0,52.0,-53.16,-70.91,45.03,46.4,31.09,1554322348
16,castro,cl,90.0,93.0,-42.48,-73.76,51.8,51.8,14.99,1554318000
17,helong,cn,92.0,99.0,25.94,116.13,56.97,56.97,3.15,1554322854
20,zirandaro,mx,0.0,19.0,18.45,-100.98,95.04,95.04,3.15,1554322855
21,khash,ir,0.0,58.0,28.22,61.21,55.08,55.08,4.38,1554322855
22,sorland,no,75.0,93.0,67.67,12.69,35.42,37.4,26.4,1554321000
23,thompson,ca,40.0,47.0,55.74,-97.86,15.8,15.8,10.29,1554318000
25,yining,cn,76.0,95.0,29.04,114.56,48.06,48.06,2.15,1554322856
26,hofn,is,90.0,86.0,64.25,-15.21,33.8,33.8,6.93,1554318000
27,caravelas,br,12.0,100.0,-17.73,-39.27,81.27,81.27,9.42,1554322857
28,serov,ru,0.0,69.0,59.61,60.57,17.01,17.01,4.38,1554322857
29,piacabucu,br,8.0,71.0,-10.41,-36.43,82.17,82.17,9.98,1554322857
30,rikitea,pf,12.0,100.0,-23.12,-134.97,74.7,74.7,20.49,1554322858
31,nikolskoye,ru,0.0,32.0,59.7,30.79,35.82,39.2,6.71,1554322496
32,batemans bay,au,88.0,80.0,-35.71,150.18,58.6,64.0,1.01,1554322545
33,mizan teferi,et,0.0,74.0,6.99,35.58,62.82,62.82,2.48,1554322858
34,longyearbyen,sj,40.0,84.0,78.22,15.64,8.6,8.6,5.82,1554321000
35,bouafle,ci,75.0,79.0,6.99,-5.74,86.0,86.0,4.7,1554318000
36,avarua,ck,92.0,74.0,-21.21,-159.78,80.6,80.6,8.05,1554321600
37,takaka,nz,0.0,88.0,-40.86,172.81,49.91,53.01,1.92,1554322709
38,ribeira grande,pt,75.0,58.0,38.52,-28.7,59.0,59.0,5.82,1554321600
40,acapulco,mx,5.0,70.0,16.86,-99.88,86.0,86.0,6.93,1554320520
42,galle,lk,0.0,99.0,6.04,80.22,77.04,77.04,5.61,1554322860
43,thompson,ca,40.0,47.0,55.74,-97.86,15.8,15.8,10.29,1554318000
44,vryburg,za,68.0,87.0,-26.96,24.73,62.64,62.64,4.61,1554322861
45,hamilton,bm,90.0,77.0,32.3,-64.78,68.0,68.0,13.87,1554322547
46,redlands,us,90.0,55.0,34.06,-117.19,61.86,70.0,2.37,1554322856
47,hobart,au,40.0,80.0,-42.88,147.33,41.0,42.01,10.29,1554322635
48,busselton,au,56.0,50.0,-33.64,115.35,63.66,64.0,18.59,1554322584
50,chuy,uy,0.0,84.0,-33.69,-53.46,68.4,68.4,9.64,1554322753
51,bathsheba,bb,40.0,58.0,13.22,-59.52,86.0,86.0,23.04,1554318000
52,vaini,to,40.0,78.0,-21.2,-175.2,78.8,78.8,8.05,1554321600
54,kruisfontein,za,76.0,79.0,-34.0,24.73,60.66,60.66,7.4,1554322708
56,grand gaube,mu,75.0,88.0,-20.01,57.66,77.88,78.8,3.36,1554322743
58,narsaq,gl,20.0,54.0,60.91,-46.05,30.2,30.2,16.11,1554321000
59,albany,au,75.0,100.0,-35.02,117.88,60.8,60.8,3.36,1554318000
60,brazzaville,cg,20.0,79.0,-4.27,15.28,85.37,86.0,3.15,1554321600
61,lebu,cl,100.0,95.0,-37.62,-73.65,56.34,56.34,15.68,1554322852
62,butaritari,ki,92.0,100.0,3.07,172.79,77.67,77.67,1.59,1554322828
63,ushuaia,ar,75.0,70.0,-54.81,-68.31,44.6,44.6,27.51,1554318000
64,kilis,tr,75.0,81.0,36.72,37.12,49.64,51.8,8.05,1554322318
65,dingle,ie,75.0,70.0,52.14,-10.27,42.8,42.8,14.99,1554318000
66,umm kaddadah,sd,0.0,15.0,13.6,26.69,71.46,71.46,11.21,1554322865
67,lebu,cl,100.0,95.0,-37.62,-73.65,56.34,56.34,15.68,1554322852
69,ribeira grande,pt,75.0,58.0,38.52,-28.7,59.0,59.0,5.82,1554321600
70,ulaanbaatar,mn,0.0,68.0,47.92,106.92,30.2,30.2,6.71,1554321600
71,port elizabeth,za,0.0,52.0,-33.92,25.57,66.2,66.2,5.82,1554321600
72,zhigansk,ru,88.0,84.0,66.77,123.37,25.2,25.2,5.61,1554322867
73,atuona,pf,48.0,100.0,-9.8,-139.03,81.63,81.63,15.35,1554322711
75,busselton,au,56.0,50.0,-33.64,115.35,63.66,64.0,18.59,1554322584
76,gallup,us,90.0,40.0,35.53,-108.74,55.02,57.2,11.41,1554321180
77,castro,cl,90.0,93.0,-42.48,-73.76,51.8,51.8,14.99,1554318000
79,jamestown,sh,92.0,100.0,-15.94,-5.72,76.77,76.77,18.92,1554322868
80,tasiilaq,gl,0.0,92.0,65.61,-37.64,30.2,30.2,19.46,1554321000
81,lebu,cl,100.0,95.0,-37.62,-73.65,56.34,56.34,15.68,1554322852
82,rikitea,pf,12.0,100.0,-23.12,-134.97,74.7,74.7,20.49,1554322858
83,muriti,tz,20.0,83.0,-1.99,32.93,73.4,73.4,4.94,1554318000
84,broken hill,au,56.0,32.0,-31.97,141.45,66.2,66.2,6.93,1554318000
87,praya,id,40.0,100.0,-8.71,116.27,77.0,77.0,5.17,1554319800
88,saint-pierre,re,0.0,69.0,-21.34,55.48,74.43,80.6,13.87,1554322564
89,hobart,au,40.0,80.0,-42.88,147.33,41.0,42.01,10.29,1554322635
91,upernavik,gl,80.0,88.0,72.79,-56.15,25.38,25.38,42.97,1554322720
92,punta arenas,cl,40.0,52.0,-53.16,-70.91,45.03,46.4,31.09,1554322348
93,nikolskoye,ru,0.0,32.0,59.7,30.79,35.82,39.2,6.71,1554322496
94,chokurdakh,ru,0.0,55.0,70.62,147.9,-0.64,-0.64,2.93,1554322871
96,san patricio,mx,5.0,74.0,19.22,-104.7,80.6,80.6,11.41,1554320460
97,lidkoping,se,88.0,65.0,58.51,13.16,44.11,48.0,10.29,1554322797
98,jamestown,sh,92.0,100.0,-15.94,-5.72,76.77,76.77,18.92,1554322868
99,kudahuvadhoo,mv,0.0,100.0,2.67,72.89,82.98,82.98,4.5,1554322872
101,saskylakh,ru,56.0,83.0,71.97,114.09,21.87,21.87,5.39,1554322864
102,saint george,bm,90.0,77.0,32.38,-64.68,68.0,68.0,13.87,1554322547
104,atuona,pf,48.0,100.0,-9.8,-139.03,81.63,81.63,15.35,1554322711
105,solvychegodsk,ru,0.0,85.0,61.33,46.92,21.87,21.87,4.16,1554322873
106,busselton,au,56.0,50.0,-33.64,115.35,63.66,64.0,18.59,1554322584
108,busselton,au,56.0,50.0,-33.64,115.35,63.66,64.0,18.59,1554322584
109,souillac,mu,75.0,88.0,-20.52,57.52,77.7,78.8,3.36,1554322743
110,olinda,br,40.0,52.0,-22.82,-43.41,84.6,89.6,11.41,1554322830
111,ushuaia,ar,75.0,70.0,-54.81,-68.31,44.6,44.6,27.51,1554318000
112,mahebourg,mu,75.0,88.0,-20.41,57.7,77.7,78.8,3.36,1554322743
113,nanortalik,gl,68.0,100.0,60.14,-45.24,31.5,31.5,30.78,1554322875
116,ushuaia,ar,75.0,70.0,-54.81,-68.31,44.6,44.6,27.51,1554318000
119,hobart,au,40.0,80.0,-42.88,147.33,41.0,42.01,10.29,1554322635
122,butaritari,ki,92.0,100.0,3.07,172.79,77.67,77.67,1.59,1554322828
123,rikitea,pf,12.0,100.0,-23.12,-134.97,74.7,74.7,20.49,1554322858
124,dmytrivka,ua,24.0,40.0,50.46,30.17,34.81,37.99,2.24,1554322292
125,pismo beach,us,90.0,67.0,35.14,-120.64,61.95,64.0,4.94,1554322670
126,chuy,uy,0.0,84.0,-33.69,-53.46,68.4,68.4,9.64,1554322753
128,jamestown,sh,92.0,100.0,-15.94,-5.72,76.77,76.77,18.92,1554322868
130,faanui,pf,12.0,100.0,-16.48,-151.75,84.33,84.33,9.98,1554322845
131,pisco,pe,0.0,30.0,-13.71,-76.2,71.6,71.6,16.11,1554318000
132,bluff,nz,92.0,93.0,-46.6,168.33,48.0,48.0,1.01,1554322807
133,beloha,mg,0.0,84.0,-25.17,45.06,73.53,73.53,8.52,1554322879
134,avarua,ck,92.0,74.0,-21.21,-159.78,80.6,80.6,8.05,1554321600
135,iqaluit,ca,75.0,71.0,63.75,-68.52,8.33,8.6,4.7,1554322323
136,rikitea,pf,12.0,100.0,-23.12,-134.97,74.7,74.7,20.49,1554322858
138,hithadhoo,mv,36.0,100.0,-0.6,73.08,79.74,79.74,4.38,1554322880
139,olinda,br,40.0,52.0,-22.82,-43.41,84.6,89.6,11.41,1554322830
140,westport,ie,92.0,82.0,53.8,-9.52,42.94,44.01,7.0,1554322691
141,erenhot,cn,20.0,51.0,43.65,111.97,42.66,42.66,14.12,1554322880
142,tiznit,ma,32.0,86.0,29.7,-9.73,61.74,61.74,7.4,1554322881
143,ribeira grande,pt,75.0,58.0,38.52,-28.7,59.0,59.0,5.82,1554321600
144,ust-kut,ru,80.0,68.0,56.78,105.75,25.47,25.47,7.96,1554322881
145,punta arenas,cl,40.0,52.0,-53.16,-70.91,45.03,46.4,31.09,1554322348
146,sabang,id,8.0,100.0,1.17,120.82,81.54,81.54,2.59,1554322881
147,havre-saint-pierre,ca,90.0,100.0,50.23,-63.6,28.4,28.4,18.34,1554320460
148,yellowknife,ca,20.0,59.0,62.45,-114.38,5.04,7.0,12.75,1554322545
149,alofi,nu,40.0,74.0,-19.06,-169.92,80.6,80.6,8.05,1554321600
150,cape town,za,0.0,88.0,-33.93,18.42,61.5,64.99,3.36,1554322879
151,kamogawa,jp,0.0,42.0,35.13,140.08,41.61,46.4,5.82,1554322703
152,rio grande,br,75.0,62.0,-32.03,-52.1,86.0,86.0,9.17,1554318000
153,broome,au,0.0,88.0,-17.97,122.23,68.0,68.0,7.63,1554319800
154,vrangel,ru,12.0,96.0,42.73,133.08,37.62,37.62,8.52,1554322883
155,cape town,za,0.0,88.0,-33.93,18.42,61.5,64.99,3.36,1554322879
156,pacific grove,us,75.0,62.0,36.62,-121.92,59.59,64.0,6.93,1554322816
157,coquimbo,cl,0.0,56.0,-29.95,-71.34,69.8,69.8,9.17,1554318000
158,katherine,au,32.0,69.0,-14.47,132.26,78.8,78.8,8.05,1554319800
159,grand gaube,mu,75.0,88.0,-20.01,57.66,77.88,78.8,3.36,1554322743
160,ponta do sol,cv,40.0,49.0,17.2,-25.09,73.4,73.4,23.04,1554318000
161,binzhou,cn,0.0,45.0,37.38,117.96,57.0,57.0,3.0,1554321437
162,punta arenas,cl,40.0,52.0,-53.16,-70.91,45.03,46.4,31.09,1554322348
163,soyo,ao,24.0,87.0,-6.13,12.37,82.26,82.26,5.84,1554322885
164,busselton,au,56.0,50.0,-33.64,115.35,63.66,64.0,18.59,1554322584
165,husavik,is,0.0,56.0,66.04,-17.34,41.0,41.0,14.99,1554321600
166,new norfolk,au,40.0,80.0,-42.78,147.06,41.0,42.01,10.29,1554322815
167,busselton,au,56.0,50.0,-33.64,115.35,63.66,64.0,18.59,1554322584
168,thompson,ca,40.0,47.0,55.74,-97.86,15.8,15.8,10.29,1554318000
169,severo-kurilsk,ru,88.0,97.0,50.68,156.12,33.03,33.03,6.85,1554322709
170,mayo,ca,20.0,24.0,63.59,-135.9,19.4,19.4,18.34,1554318000
171,port alfred,za,12.0,95.0,-33.59,26.89,64.99,64.99,3.0,1554322608
172,isangel,vu,64.0,100.0,-19.55,169.27,79.02,79.02,11.88,1554322887
173,vaini,to,40.0,78.0,-21.2,-175.2,78.8,78.8,8.05,1554321600
174,mosquera,co,40.0,63.0,4.71,-74.23,66.2,66.2,14.99,1554318000
175,margate,za,56.0,88.0,-30.86,30.37,74.43,74.43,21.72,1554322888
176,hermanus,za,80.0,72.0,-34.42,19.24,61.0,61.0,2.93,1554322574
177,bluff,nz,92.0,93.0,-46.6,168.33,48.0,48.0,1.01,1554322807
178,cabo san lucas,mx,5.0,42.0,22.89,-109.91,81.05,89.01,11.41,1554322615
179,pontes e lacerda,br,32.0,82.0,-15.23,-59.33,81.36,81.36,6.17,1554322614
180,abalak,ne,0.0,21.0,15.46,6.28,82.44,82.44,9.19,1554322889
181,bathsheba,bb,40.0,58.0,13.22,-59.52,86.0,86.0,23.04,1554318000
182,tabou,ci,76.0,100.0,4.42,-7.36,82.8,82.8,11.65,1554322889
183,kapaa,us,75.0,60.0,22.08,-159.32,74.64,75.99,10.29,1554322705
184,port elizabeth,za,0.0,52.0,-33.92,25.57,66.2,66.2,5.82,1554321600
185,tangshan,cn,0.0,57.0,39.63,118.17,45.81,45.81,9.98,1554322890
186,albany,au,75.0,100.0,-35.02,117.88,60.8,60.8,3.36,1554318000
187,ushuaia,ar,75.0,70.0,-54.81,-68.31,44.6,44.6,27.51,1554318000
189,busselton,au,56.0,50.0,-33.64,115.35,63.66,64.0,18.59,1554322584
190,tanete,id,36.0,96.0,-3.94,119.78,72.99,72.99,2.93,1554322891
191,barrow,us,90.0,41.0,39.51,-90.4,58.26,63.0,9.17,1554322817
192,thompson,ca,40.0,47.0,55.74,-97.86,15.8,15.8,10.29,1554318000
193,san patricio,mx,5.0,74.0,19.22,-104.7,80.6,80.6,11.41,1554320460
194,hermanus,za,80.0,72.0,-34.42,19.24,61.0,61.0,2.93,1554322574
195,busselton,au,56.0,50.0,-33.64,115.35,63.66,64.0,18.59,1554322584
196,chokurdakh,ru,0.0,55.0,70.62,147.9,-0.64,-0.64,2.93,1554322871
198,hermanus,za,80.0,72.0,-34.42,19.24,61.0,61.0,2.93,1554322574
199,port-gentil,ga,20.0,83.0,-0.72,8.78,82.4,82.4,8.05,1554321600
200,vaini,to,40.0,78.0,-21.2,-175.2,78.8,78.8,8.05,1554321600
201,ilulissat,gl,75.0,78.0,69.22,-51.1,17.6,17.6,16.11,1554321000
202,vieux-habitants,gp,68.0,83.0,16.06,-61.77,75.2,75.2,12.75,1554319800
203,nikolskoye,ru,0.0,32.0,59.7,30.79,35.82,39.2,6.71,1554322496
204,hermanus,za,80.0,72.0,-34.42,19.24,61.0,61.0,2.93,1554322574
205,busselton,au,56.0,50.0,-33.64,115.35,63.66,64.0,18.59,1554322584
206,torbay,ca,90.0,55.0,47.66,-52.73,33.6,35.6,18.34,1554322717
207,sao filipe,cv,12.0,97.0,14.9,-24.5,70.38,70.38,16.35,1554322894
209,fortuna,us,90.0,93.0,40.6,-124.16,55.08,57.99,3.36,1554322826
210,kodiak,us,90.0,14.0,39.95,-94.76,63.48,68.0,14.99,1554322756
211,gamba,ga,68.0,97.0,-2.72,10.02,83.52,83.52,6.73,1554322895
212,ambilobe,mg,20.0,95.0,-13.19,49.05,72.0,72.0,3.27,1554322895
213,severo-kurilsk,ru,88.0,97.0,50.68,156.12,33.03,33.03,6.85,1554322709
214,floro,no,0.0,75.0,61.6,5.03,40.17,41.0,5.82,1554322541
215,rocha,uy,0.0,68.0,-34.48,-54.34,68.85,68.85,5.95,1554322736
218,muriwai beach,nz,100.0,72.0,-36.82,174.45,59.61,62.01,3.36,1554322878
219,rio gallegos,ar,20.0,34.0,-51.62,-69.22,50.0,50.0,33.33,1554318000
220,coquimbo,cl,0.0,56.0,-29.95,-71.34,69.8,69.8,9.17,1554318000
221,castro,cl,90.0,93.0,-42.48,-73.76,51.8,51.8,14.99,1554318000
222,arraial do cabo,br,0.0,65.0,-22.97,-42.02,82.4,82.4,13.87,1554318000
223,hermanus,za,80.0,72.0,-34.42,19.24,61.0,61.0,2.93,1554322574
225,albany,au,75.0,100.0,-35.02,117.88,60.8,60.8,3.36,1554318000
226,albany,au,75.0,100.0,-35.02,117.88,60.8,60.8,3.36,1554318000
227,thompson,ca,40.0,47.0,55.74,-97.86,15.8,15.8,10.29,1554318000
228,nikolskoye,ru,0.0,32.0,59.7,30.79,35.82,39.2,6.71,1554322496
229,port blair,in,0.0,100.0,11.67,92.75,83.88,83.88,1.92,1554322898
230,sabang,id,8.0,100.0,1.17,120.82,81.54,81.54,2.59,1554322881
231,punta arenas,cl,40.0,52.0,-53.16,-70.91,45.03,46.4,31.09,1554322348
232,anloga,gh,40.0,84.0,5.79,0.9,86.0,86.0,11.41,1554318000
233,rikitea,pf,12.0,100.0,-23.12,-134.97,74.7,74.7,20.49,1554322858
234,poum,nc,76.0,100.0,-20.23,164.02,79.83,79.83,1.14,1554322899
235,punta arenas,cl,40.0,52.0,-53.16,-70.91,45.03,46.4,31.09,1554322348
236,ushuaia,ar,75.0,70.0,-54.81,-68.31,44.6,44.6,27.51,1554318000
237,torbay,ca,90.0,55.0,47.66,-52.73,33.6,35.6,18.34,1554322717
238,luderitz,na,0.0,87.0,-26.65,15.16,58.77,58.77,11.43,1554322836
239,mizdah,ly,0.0,56.0,31.45,12.98,53.82,53.82,1.7,1554322900
241,jamestown,sh,92.0,100.0,-15.94,-5.72,76.77,76.77,18.92,1554322868
242,ushuaia,ar,75.0,70.0,-54.81,-68.31,44.6,44.6,27.51,1554318000
243,bredasdorp,za,44.0,93.0,-34.53,20.04,59.0,59.0,5.82,1554321600
244,nanortalik,gl,68.0,100.0,60.14,-45.24,31.5,31.5,30.78,1554322875
245,broome,au,0.0,88.0,-17.97,122.23,68.0,68.0,7.63,1554319800
247,rikitea,pf,12.0,100.0,-23.12,-134.97,74.7,74.7,20.49,1554322858
248,albany,au,75.0,100.0,-35.02,117.88,60.8,60.8,3.36,1554318000
249,santo antonio do ica,br,12.0,77.0,-3.1,-67.94,85.77,85.77,3.94,1554322901
250,alice springs,au,0.0,28.0,-23.7,133.88,55.4,55.4,5.82,1554319800
251,castro,cl,90.0,93.0,-42.48,-73.76,51.8,51.8,14.99,1554318000
252,albany,au,75.0,100.0,-35.02,117.88,60.8,60.8,3.36,1554318000
253,punta arenas,cl,40.0,52.0,-53.16,-70.91,45.03,46.4,31.09,1554322348
254,belyy yar,ru,0.0,58.0,53.6,91.39,30.2,30.2,4.83,1554319800
255,cherskiy,ru,0.0,65.0,68.75,161.3,20.25,20.25,2.71,1554322746
256,sioux lookout,ca,75.0,49.0,50.1,-91.92,23.67,24.8,16.11,1554318000
257,hofn,is,90.0,86.0,64.25,-15.21,33.8,33.8,6.93,1554318000
258,nikolskoye,ru,0.0,32.0,59.7,30.79,35.82,39.2,6.71,1554322496
260,ponta do sol,cv,40.0,49.0,17.2,-25.09,73.4,73.4,23.04,1554318000
261,ostrovnoy,ru,24.0,87.0,68.05,39.51,27.63,27.63,13.56,1554322904
263,kapaa,us,75.0,60.0,22.08,-159.32,74.64,75.99,10.29,1554322705
264,busselton,au,56.0,50.0,-33.64,115.35,63.66,64.0,18.59,1554322584
265,tuatapere,nz,92.0,93.0,-46.13,167.69,48.0,48.0,1.01,1554322807
266,dingle,ie,75.0,70.0,52.14,-10.27,42.8,42.8,14.99,1554318000
267,bichura,ru,88.0,78.0,50.59,107.6,27.54,27.54,4.16,1554322905
268,tasiilaq,gl,0.0,92.0,65.61,-37.64,30.2,30.2,19.46,1554321000
269,longyearbyen,sj,40.0,84.0,78.22,15.64,8.6,8.6,5.82,1554321000
271,mushie,cd,12.0,81.0,-3.02,16.92,81.9,81.9,2.26,1554322906
272,rio gallegos,ar,20.0,34.0,-51.62,-69.22,50.0,50.0,33.33,1554318000
273,bluff,nz,92.0,93.0,-46.6,168.33,48.0,48.0,1.01,1554322807
274,bluff,nz,92.0,93.0,-46.6,168.33,48.0,48.0,1.01,1554322807
276,bethel,us,1.0,74.0,60.79,-161.76,34.99,37.4,19.46,1554321360
277,arraial do cabo,br,0.0,65.0,-22.97,-42.02,82.4,82.4,13.87,1554318000
278,rikitea,pf,12.0,100.0,-23.12,-134.97,74.7,74.7,20.49,1554322858
279,chokurdakh,ru,0.0,55.0,70.62,147.9,-0.64,-0.64,2.93,1554322871
280,butaritari,ki,92.0,100.0,3.07,172.79,77.67,77.67,1.59,1554322828
281,meulaboh,id,24.0,100.0,4.14,96.13,78.93,78.93,4.16,1554322908
282,bluff,nz,92.0,93.0,-46.6,168.33,48.0,48.0,1.01,1554322807
283,punta arenas,cl,40.0,52.0,-53.16,-70.91,45.03,46.4,31.09,1554322348
284,ust-kuyga,ru,0.0,59.0,70.0,135.55,1.35,1.35,4.05,1554322908
285,clinton,us,40.0,41.0,41.84,-90.19,56.62,59.0,14.99,1554322799
286,bambous virieux,mu,75.0,88.0,-20.34,57.76,77.74,78.8,3.36,1554322743
287,tasiilaq,gl,0.0,92.0,65.61,-37.64,30.2,30.2,19.46,1554321000
288,punta arenas,cl,40.0,52.0,-53.16,-70.91,45.03,46.4,31.09,1554322348
289,upernavik,gl,80.0,88.0,72.79,-56.15,25.38,25.38,42.97,1554322720
290,lapy,pl,0.0,35.0,52.99,22.88,42.3,45.0,18.81,1554322824
292,hambantota,lk,0.0,100.0,6.12,81.12,80.19,80.19,3.6,1554322910
293,bjornevatn,no,40.0,69.0,69.67,29.98,34.63,35.6,26.4,1554321000
294,narsaq,gl,20.0,54.0,60.91,-46.05,30.2,30.2,16.11,1554321000
295,vaini,to,40.0,78.0,-21.2,-175.2,78.8,78.8,8.05,1554321600
296,carnarvon,au,90.0,78.0,-24.87,113.63,75.2,75.2,19.46,1554318000
297,pisco,pe,0.0,30.0,-13.71,-76.2,71.6,71.6,16.11,1554318000
298,busselton,au,56.0,50.0,-33.64,115.35,63.66,64.0,18.59,1554322584
299,lagoa,pt,0.0,51.0,37.14,-8.45,56.25,59.0,11.41,1554322639
300,atuona,pf,48.0,100.0,-9.8,-139.03,81.63,81.63,15.35,1554322711
301,soyo,ao,24.0,87.0,-6.13,12.37,82.26,82.26,5.84,1554322885
303,arraial do cabo,br,0.0,65.0,-22.97,-42.02,82.4,82.4,13.87,1554318000
304,la palma,pa,48.0,71.0,8.4,-78.14,84.15,84.15,10.31,1554322913
306,cidreira,br,36.0,86.0,-30.17,-50.22,77.04,77.04,1.81,1554322913
307,qandala,so,0.0,83.0,11.47,49.87,69.48,69.48,2.71,1554322629
308,new norfolk,au,40.0,80.0,-42.78,147.06,41.0,42.01,10.29,1554322815
310,thika,ke,75.0,56.0,-1.04,37.08,69.64,73.4,19.46,1554322632
311,wanning,cn,92.0,100.0,18.8,110.4,73.8,73.8,5.5,1554322914
312,chokurdakh,ru,0.0,55.0,70.62,147.9,-0.64,-0.64,2.93,1554322871
313,marawi,sd,0.0,34.0,18.48,31.82,63.18,63.18,2.71,1554322628
314,vila velha,br,75.0,74.0,-3.71,-38.6,81.0,82.4,8.05,1554322086
315,cape town,za,0.0,88.0,-33.93,18.42,61.5,64.99,3.36,1554322879
317,lubben,de,0.0,58.0,51.95,13.9,56.62,60.01,9.17,1554322807
318,lebu,cl,100.0,95.0,-37.62,-73.65,56.34,56.34,15.68,1554322852
319,port hardy,ca,90.0,87.0,50.7,-127.42,50.0,50.0,3.36,1554318000
320,jamestown,sh,92.0,100.0,-15.94,-5.72,76.77,76.77,18.92,1554322868
321,okha,ru,88.0,91.0,53.59,142.95,29.88,29.88,17.47,1554322916
322,sapucaia,br,0.0,67.0,-21.99,-42.91,74.16,74.16,1.7,1554322916
323,ushuaia,ar,75.0,70.0,-54.81,-68.31,44.6,44.6,27.51,1554318000
324,ponta do sol,cv,40.0,49.0,17.2,-25.09,73.4,73.4,23.04,1554318000
325,butaritari,ki,92.0,100.0,3.07,172.79,77.67,77.67,1.59,1554322828
326,tuktoyaktuk,ca,75.0,77.0,69.44,-133.03,-2.21,-2.21,18.34,1554318000
328,bambous virieux,mu,75.0,88.0,-20.34,57.76,77.74,78.8,3.36,1554322743
329,hobart,au,40.0,80.0,-42.88,147.33,41.0,42.01,10.29,1554322635
330,upernavik,gl,80.0,88.0,72.79,-56.15,25.38,25.38,42.97,1554322720
331,richards bay,za,8.0,87.0,-28.77,32.06,70.92,70.92,12.1,1554322918
332,bethel,us,1.0,74.0,60.79,-161.76,34.99,37.4,19.46,1554321360
333,iqaluit,ca,75.0,71.0,63.75,-68.52,8.33,8.6,4.7,1554322323
334,hobyo,so,24.0,83.0,5.35,48.53,81.0,81.0,7.4,1554322918
336,albany,au,75.0,100.0,-35.02,117.88,60.8,60.8,3.36,1554318000
337,punta arenas,cl,40.0,52.0,-53.16,-70.91,45.03,46.4,31.09,1554322348
338,verkhnyaya inta,ru,92.0,93.0,65.99,60.32,33.75,33.75,5.84,1554322919
339,hermanus,za,80.0,72.0,-34.42,19.24,61.0,61.0,2.93,1554322574
340,chokurdakh,ru,0.0,55.0,70.62,147.9,-0.64,-0.64,2.93,1554322871
341,busselton,au,56.0,50.0,-33.64,115.35,63.66,64.0,18.59,1554322584
342,carmo do rio claro,br,64.0,72.0,-20.97,-46.12,76.95,76.95,3.38,1554322877
344,mindelo,cv,40.0,49.0,16.89,-24.98,73.4,73.4,23.04,1554318000
345,newport,us,20.0,27.0,41.49,-71.31,58.32,64.0,21.92,1554322843
346,cape town,za,0.0,88.0,-33.93,18.42,61.5,64.99,3.36,1554322879
347,mangai,cd,8.0,94.0,-4.07,19.59,76.23,76.23,2.71,1554322921
350,jamestown,sh,92.0,100.0,-15.94,-5.72,76.77,76.77,18.92,1554322868
351,hofn,is,90.0,86.0,64.25,-15.21,33.8,33.8,6.93,1554318000
352,busselton,au,56.0,50.0,-33.64,115.35,63.66,64.0,18.59,1554322584
354,nuuk,gl,75.0,68.0,64.17,-51.74,24.37,24.8,17.22,1554322322
355,esperance,au,75.0,88.0,-33.86,121.89,64.4,64.4,13.87,1554318000
356,port alfred,za,12.0,95.0,-33.59,26.89,64.99,64.99,3.0,1554322608
357,albany,au,75.0,100.0,-35.02,117.88,60.8,60.8,3.36,1554318000
358,saskylakh,ru,56.0,83.0,71.97,114.09,21.87,21.87,5.39,1554322864
359,luderitz,na,0.0,87.0,-26.65,15.16,58.77,58.77,11.43,1554322836
360,punta arenas,cl,40.0,52.0,-53.16,-70.91,45.03,46.4,31.09,1554322348
362,yellowknife,ca,20.0,59.0,62.45,-114.38,5.04,7.0,12.75,1554322545
363,rikitea,pf,12.0,100.0,-23.12,-134.97,74.7,74.7,20.49,1554322858
364,qaanaaq,gl,64.0,88.0,77.48,-69.36,11.97,11.97,5.95,1554322804
366,ushuaia,ar,75.0,70.0,-54.81,-68.31,44.6,44.6,27.51,1554318000
367,victoria,sc,20.0,74.0,-4.62,55.45,84.2,84.2,4.7,1554321600
368,lafia,ng,0.0,54.0,8.5,8.51,79.65,79.65,3.6,1554322925
369,butaritari,ki,92.0,100.0,3.07,172.79,77.67,77.67,1.59,1554322828
370,upernavik,gl,80.0,88.0,72.79,-56.15,25.38,25.38,42.97,1554322720
371,constitucion,mx,5.0,9.0,23.99,-104.67,76.5,77.0,14.99,1554322815
372,karratha,au,0.0,65.0,-20.74,116.85,74.25,74.25,10.76,1554322890
373,sao filipe,cv,12.0,97.0,14.9,-24.5,70.38,70.38,16.35,1554322894
374,san carlos de bariloche,ar,75.0,66.0,-41.13,-71.31,50.0,50.0,20.8,1554318000
375,broken hill,au,56.0,32.0,-31.97,141.45,66.2,66.2,6.93,1554318000
377,longyearbyen,sj,40.0,84.0,78.22,15.64,8.6,8.6,5.82,1554321000
378,imbituba,br,40.0,74.0,-28.24,-48.67,82.4,82.4,6.93,1554318000
379,vostok,ru,44.0,70.0,46.45,135.83,20.88,20.88,2.37,1554322927
380,ragama,lk,40.0,74.0,7.03,79.92,82.4,82.4,4.7,1554318600
381,nikolskoye,ru,0.0,32.0,59.7,30.79,35.82,39.2,6.71,1554322496
382,rikitea,pf,12.0,100.0,-23.12,-134.97,74.7,74.7,20.49,1554322858
383,rockhampton,au,20.0,77.0,-23.38,150.51,68.0,68.0,6.93,1554319800
385,chuy,uy,0.0,84.0,-33.69,-53.46,68.4,68.4,9.64,1554322753
386,cidreira,br,36.0,86.0,-30.17,-50.22,77.04,77.04,1.81,1554322913
387,aykhal,ru,0.0,70.0,65.95,111.51,16.65,16.65,4.61,1554322929
388,kavaratti,in,64.0,100.0,10.57,72.64,84.06,84.06,2.59,1554322720
389,atuona,pf,48.0,100.0,-9.8,-139.03,81.63,81.63,15.35,1554322711
390,chicama,pe,20.0,88.0,-7.84,-79.15,68.0,68.0,11.41,1554318000
392,pevek,ru,0.0,65.0,69.7,170.27,17.01,17.01,1.7,1554322922
393,hithadhoo,mv,36.0,100.0,-0.6,73.08,79.74,79.74,4.38,1554322880
394,vaini,to,40.0,78.0,-21.2,-175.2,78.8,78.8,8.05,1554321600
395,san patricio,mx,5.0,74.0,19.22,-104.7,80.6,80.6,11.41,1554320460
396,bacolod,ph,0.0,82.0,10.68,122.95,70.11,70.11,5.61,1554322931
397,jamestown,sh,92.0,100.0,-15.94,-5.72,76.77,76.77,18.92,1554322868
398,ancud,cl,90.0,93.0,-41.87,-73.83,51.8,51.8,14.99,1554318000
399,cape town,za,0.0,88.0,-33.93,18.42,61.5,64.99,3.36,1554322879
400,severo-kurilsk,ru,88.0,97.0,50.68,156.12,33.03,33.03,6.85,1554322709
401,qaanaaq,gl,64.0,88.0,77.48,-69.36,11.97,11.97,5.95,1554322804
403,kozhva,ru,88.0,97.0,65.11,57.05,34.11,34.11,5.73,1554322932
404,ushuaia,ar,75.0,70.0,-54.81,-68.31,44.6,44.6,27.51,1554318000
405,chiredzi,zw,100.0,61.0,-21.05,31.67,77.13,77.13,6.96,1554322932
406,salamanca,cl,56.0,71.0,-31.78,-70.97,59.22,59.22,1.81,1554322933
407,kapaa,us,75.0,60.0,22.08,-159.32,74.64,75.99,10.29,1554322705
408,nelson bay,au,92.0,93.0,-32.72,152.14,59.2,63.0,6.62,1554322660
409,karpathos,gr,0.0,76.0,35.51,27.21,57.2,57.2,6.93,1554321000
410,port alfred,za,12.0,95.0,-33.59,26.89,64.99,64.99,3.0,1554322608
411,cayenne,gf,75.0,69.0,4.94,-52.33,82.4,82.4,12.75,1554319800
412,punta arenas,cl,40.0,52.0,-53.16,-70.91,45.03,46.4,31.09,1554322348
413,albany,au,75.0,100.0,-35.02,117.88,60.8,60.8,3.36,1554318000
414,cidreira,br,36.0,86.0,-30.17,-50.22,77.04,77.04,1.81,1554322913
415,biak,id,80.0,100.0,-0.91,122.88,77.85,77.85,2.59,1554322934
416,derzhavinsk,kz,0.0,91.0,51.1,66.31,39.6,39.6,8.63,1554322935
417,sechura,pe,24.0,68.0,-5.56,-80.82,81.27,81.27,12.1,1554322785
418,srednekolymsk,ru,0.0,80.0,67.46,153.71,15.3,15.3,2.15,1554322935
419,bredasdorp,za,44.0,93.0,-34.53,20.04,59.0,59.0,5.82,1554321600
420,chumikan,ru,0.0,65.0,54.72,135.31,8.1,8.1,3.15,1554322935
421,kaitangata,nz,56.0,65.0,-46.28,169.85,50.58,50.58,6.4,1554322936
422,porto novo,cv,40.0,49.0,17.02,-25.06,73.4,73.4,23.04,1554318000
423,yellowknife,ca,20.0,59.0,62.45,-114.38,5.04,7.0,12.75,1554322545
424,punta arenas,cl,40.0,52.0,-53.16,-70.91,45.03,46.4,31.09,1554322348
425,dingle,ie,75.0,70.0,52.14,-10.27,42.8,42.8,14.99,1554318000
426,caravelas,br,12.0,100.0,-17.73,-39.27,81.27,81.27,9.42,1554322857
427,pevek,ru,0.0,65.0,69.7,170.27,17.01,17.01,1.7,1554322922
428,rikitea,pf,12.0,100.0,-23.12,-134.97,74.7,74.7,20.49,1554322858
431,udachnyy,ru,0.0,78.0,66.42,112.4,21.42,21.42,4.72,1554322938
432,huarmey,pe,36.0,67.0,-10.07,-78.15,76.5,76.5,4.05,1554322938
433,pevek,ru,0.0,65.0,69.7,170.27,17.01,17.01,1.7,1554322922
434,saint-philippe,re,0.0,69.0,-21.36,55.77,74.46,80.6,13.87,1554322564
436,hofn,is,90.0,86.0,64.25,-15.21,33.8,33.8,6.93,1554318000
437,kluczbork,pl,0.0,49.0,50.97,18.21,54.27,54.27,14.0,1554322939
438,busselton,au,56.0,50.0,-33.64,115.35,63.66,64.0,18.59,1554322584
440,saint-augustin,ca,20.0,45.0,45.63,-73.98,45.64,46.99,29.97,1554322901
441,saint-medard-en-jalles,fr,32.0,86.0,44.9,-0.72,42.91,46.4,8.05,1554322804
442,sitka,us,80.0,48.0,37.17,-99.65,64.99,64.99,14.0,1554322570
443,ambovombe,mg,0.0,85.0,-25.18,46.09,78.12,78.12,14.67,1554322940
444,sajoszoged,hu,36.0,53.0,47.95,21.0,50.0,50.0,3.36,1554320700
445,rikitea,pf,12.0,100.0,-23.12,-134.97,74.7,74.7,20.49,1554322858
446,vaini,to,40.0,78.0,-21.2,-175.2,78.8,78.8,8.05,1554321600
447,cabo san lucas,mx,5.0,42.0,22.89,-109.91,81.05,89.01,11.41,1554322615
448,khatanga,ru,92.0,91.0,71.98,102.47,16.38,16.38,10.65,1554322726
449,port alfred,za,12.0,95.0,-33.59,26.89,64.99,64.99,3.0,1554322608
450,carman,ca,1.0,40.0,49.51,-98.0,32.88,35.6,10.29,1554322824
451,east london,za,32.0,100.0,-33.02,27.91,72.0,72.0,25.75,1554322754
452,mahebourg,mu,75.0,88.0,-20.41,57.7,77.7,78.8,3.36,1554322743
454,cidreira,br,36.0,86.0,-30.17,-50.22,77.04,77.04,1.81,1554322913
455,thompson,ca,40.0,47.0,55.74,-97.86,15.8,15.8,10.29,1554318000
456,rocha,uy,0.0,68.0,-34.48,-54.34,68.85,68.85,5.95,1554322736
457,wolgast,de,24.0,65.0,54.05,13.77,51.01,51.01,1.99,1554322051
458,vaini,to,40.0,78.0,-21.2,-175.2,78.8,78.8,8.05,1554321600
459,new norfolk,au,40.0,80.0,-42.78,147.06,41.0,42.01,10.29,1554322815
460,faanui,pf,12.0,100.0,-16.48,-151.75,84.33,84.33,9.98,1554322845
461,geraldton,au,75.0,83.0,-28.77,114.6,71.6,71.6,13.87,1554319800
462,cherskiy,ru,0.0,65.0,68.75,161.3,20.25,20.25,2.71,1554322746
463,yar-sale,ru,0.0,64.0,66.83,70.83,11.16,11.16,5.28,1554322944
464,ozernovskiy,ru,80.0,94.0,51.5,156.52,30.24,30.24,3.83,1554322944
465,sungaipenuh,id,24.0,96.0,-2.08,101.38,67.23,67.23,1.36,1554322944
467,belyy yar,ru,0.0,58.0,53.6,91.39,30.2,30.2,4.83,1554319800
468,vila franca do campo,pt,20.0,71.0,37.72,-25.43,56.01,57.2,10.29,1554322943
469,kapaa,us,75.0,60.0,22.08,-159.32,74.64,75.99,10.29,1554322705
470,rikitea,pf,12.0,100.0,-23.12,-134.97,74.7,74.7,20.49,1554322858
471,ribeira grande,pt,75.0,58.0,38.52,-28.7,59.0,59.0,5.82,1554321600
472,rikitea,pf,12.0,100.0,-23.12,-134.97,74.7,74.7,20.49,1554322858
473,bluff,nz,92.0,93.0,-46.6,168.33,48.0,48.0,1.01,1554322807
475,fairview,ca,90.0,43.0,56.07,-118.38,35.47,37.0,12.75,1554322946
476,matamba,tz,48.0,87.0,-8.97,33.96,63.99,63.99,4.27,1554322947
477,rikitea,pf,12.0,100.0,-23.12,-134.97,74.7,74.7,20.49,1554322858
478,atherton,au,75.0,94.0,-17.27,145.48,71.96,75.2,11.41,1554322944
479,hilo,us,40.0,69.0,19.71,-155.08,75.2,80.01,12.21,1554322830
481,kirakira,sb,68.0,100.0,-10.46,161.92,82.8,82.8,6.85,1554322948
483,avarua,ck,92.0,74.0,-21.21,-159.78,80.6,80.6,8.05,1554321600
485,arraial do cabo,br,0.0,65.0,-22.97,-42.02,82.4,82.4,13.87,1554318000
486,lagoa,pt,0.0,51.0,37.14,-8.45,56.25,59.0,11.41,1554322639
487,nokaneng,bw,0.0,37.0,-19.66,22.19,74.07,74.07,8.75,1554322949
488,anloga,gh,40.0,84.0,5.79,0.9,86.0,86.0,11.41,1554318000
489,cabedelo,br,20.0,70.0,-6.97,-34.84,86.0,86.0,9.17,1554318000
490,nola,cf,0.0,90.0,3.52,16.05,72.27,72.27,2.15,1554322949
491,santa maria,cv,40.0,56.0,16.6,-22.9,72.84,73.4,14.99,1554321600
492,almeirim,br,68.0,79.0,-1.53,-52.58,81.45,81.45,5.06,1554322950
493,vaini,to,40.0,78.0,-21.2,-175.2,78.8,78.8,8.05,1554321600
495,jamestown,sh,92.0,100.0,-15.94,-5.72,76.77,76.77,18.92,1554322868
496,puerto ayora,ec,40.0,66.0,-0.74,-90.35,85.91,87.8,14.99,1554322513
498,vaini,to,40.0,78.0,-21.2,-175.2,78.8,78.8,8.05,1554321600
499,korem,et,80.0,94.0,12.51,39.52,59.4,59.4,2.04,1554322951
500,burnie,au,20.0,61.0,-41.05,145.91,49.75,51.01,3.0,1554322863
501,kavaratti,in,64.0,100.0,10.57,72.64,84.06,84.06,2.59,1554322720
502,atasu,kz,0.0,87.0,48.68,71.64,44.46,44.46,9.08,1554322952
503,bredasdorp,za,44.0,93.0,-34.53,20.04,59.0,59.0,5.82,1554321600
504,port lincoln,au,12.0,93.0,-34.72,135.86,64.98,64.98,10.31,1554322737
505,busselton,au,56.0,50.0,-33.64,115.35,63.66,64.0,18.59,1554322584
507,chapais,ca,90.0,79.0,49.78,-74.86,35.6,35.6,11.41,1554319920
508,vitim,ru,88.0,95.0,59.44,112.57,27.72,27.72,2.48,1554322953
509,sur,om,0.0,79.0,22.57,59.53,80.55,80.55,5.17,1554322781
510,avare,br,100.0,55.0,-23.1,-48.93,81.9,81.9,3.15,1554322658
512,punta arenas,cl,40.0,52.0,-53.16,-70.91,45.03,46.4,31.09,1554322348
513,pasighat,in,32.0,91.0,28.06,95.33,54.9,54.9,1.7,1554322954
514,punta arenas,cl,40.0,52.0,-53.16,-70.91,45.03,46.4,31.09,1554322348
516,araouane,ml,0.0,22.0,18.9,-3.53,82.8,82.8,7.4,1554322954
517,dabola,gn,76.0,72.0,10.74,-11.11,75.78,75.78,1.14,1554322955
519,ushuaia,ar,75.0,70.0,-54.81,-68.31,44.6,44.6,27.51,1554318000
520,ushuaia,ar,75.0,70.0,-54.81,-68.31,44.6,44.6,27.51,1554318000
521,tual,id,80.0,100.0,-5.67,132.75,79.47,79.47,17.69,1554322955
523,hobart,au,40.0,80.0,-42.88,147.33,41.0,42.01,10.29,1554322635
525,aklavik,ca,40.0,65.0,68.22,-135.01,2.17,3.2,5.82,1554319680
526,hermanus,za,80.0,72.0,-34.42,19.24,61.0,61.0,2.93,1554322574
527,bambous virieux,mu,75.0,88.0,-20.34,57.76,77.74,78.8,3.36,1554322743
528,hilo,us,40.0,69.0,19.71,-155.08,75.2,80.01,12.21,1554322830
529,guaymas,mx,40.0,34.0,27.92,-110.9,84.49,87.01,12.75,1554322817
530,busselton,au,56.0,50.0,-33.64,115.35,63.66,64.0,18.59,1554322584
531,ushuaia,ar,75.0,70.0,-54.81,-68.31,44.6,44.6,27.51,1554318000
532,georgetown,sh,76.0,99.0,-7.93,-14.42,82.08,82.08,16.58,1554322957
533,hobart,au,40.0,80.0,-42.88,147.33,41.0,42.01,10.29,1554322635
534,formosa,ar,75.0,78.0,-26.19,-58.17,82.4,82.4,6.93,1554321600
535,busselton,au,56.0,50.0,-33.64,115.35,63.66,64.0,18.59,1554322584
536,severodvinsk,ru,0.0,55.0,64.56,39.82,35.6,35.6,6.71,1554319800
538,vardo,no,0.0,64.0,70.37,31.11,33.78,37.4,19.46,1554321000
539,rikitea,pf,12.0,100.0,-23.12,-134.97,74.7,74.7,20.49,1554322858
541,ionia,us,40.0,23.0,42.99,-85.07,48.45,51.01,17.22,1554322945
543,hermanus,za,80.0,72.0,-34.42,19.24,61.0,61.0,2.93,1554322574
546,kruisfontein,za,76.0,79.0,-34.0,24.73,60.66,60.66,7.4,1554322708
547,albany,au,75.0,100.0,-35.02,117.88,60.8,60.8,3.36,1554318000
548,castro,cl,90.0,93.0,-42.48,-73.76,51.8,51.8,14.99,1554318000
549,quimper,fr,0.0,75.0,48.0,-4.1,39.43,42.8,6.93,1554322925
550,palasa,in,20.0,93.0,18.77,84.42,81.0,81.0,14.23,1554322961
551,naze,jp,44.0,100.0,28.37,129.48,63.54,63.54,10.76,1554322961
552,hobart,au,40.0,80.0,-42.88,147.33,41.0,42.01,10.29,1554322635
553,kavieng,pg,100.0,100.0,-2.57,150.8,80.1,80.1,7.18,1554322730
554,bonavista,ca,88.0,81.0,48.65,-53.11,32.0,32.0,7.0,1554322612
555,bathsheba,bb,40.0,58.0,13.22,-59.52,86.0,86.0,23.04,1554318000
556,new norfolk,au,40.0,80.0,-42.78,147.06,41.0,42.01,10.29,1554322815
557,luderitz,na,0.0,87.0,-26.65,15.16,58.77,58.77,11.43,1554322836
558,cape town,za,0.0,88.0,-33.93,18.42,61.5,64.99,3.36,1554322879
559,svolvaer,no,90.0,100.0,68.23,14.57,33.33,34.0,11.41,1554322605
560,pochutla,mx,20.0,43.0,15.74,-96.47,89.78,91.99,9.17,1554322580
561,port keats,au,44.0,85.0,-14.25,129.55,79.11,79.11,12.44,1554322963
562,katsuura,jp,20.0,69.0,33.93,134.5,39.2,39.2,6.93,1554318000
563,kavos,gr,0.0,70.0,38.83,22.83,48.36,48.99,3.36,1554322806
564,tiksi,ru,80.0,77.0,71.64,128.87,23.67,23.67,6.85,1554322923
565,qaanaaq,gl,64.0,88.0,77.48,-69.36,11.97,11.97,5.95,1554322804
567,bathsheba,bb,40.0,58.0,13.22,-59.52,86.0,86.0,23.04,1554318000
568,rikitea,pf,12.0,100.0,-23.12,-134.97,74.7,74.7,20.49,1554322858
569,lebu,cl,100.0,95.0,-37.62,-73.65,56.34,56.34,15.68,1554322852
570,ushuaia,ar,75.0,70.0,-54.81,-68.31,44.6,44.6,27.51,1554318000
571,ushuaia,ar,75.0,70.0,-54.81,-68.31,44.6,44.6,27.51,1554318000
572,caravelas,br,12.0,100.0,-17.73,-39.27,81.27,81.27,9.42,1554322857
573,itarema,br,92.0,92.0,-2.92,-39.92,78.93,78.93,6.17,1554322965
574,panshi,cn,56.0,63.0,42.94,126.05,32.85,32.85,6.62,1554322966
575,ushuaia,ar,75.0,70.0,-54.81,-68.31,44.6,44.6,27.51,1554318000
576,deputatskiy,ru,32.0,61.0,69.3,139.9,-4.06,-4.06,2.71,1554322966
577,lamesa,us,1.0,13.0,32.74,-101.95,80.82,82.99,14.99,1554322230
579,palmer,us,1.0,52.0,61.6,-149.11,41.56,46.99,8.05,1554322947
580,yellowknife,ca,20.0,59.0,62.45,-114.38,5.04,7.0,12.75,1554322545
582,dingle,ie,75.0,70.0,52.14,-10.27,42.8,42.8,14.99,1554318000
583,hamilton,bm,90.0,77.0,32.3,-64.78,68.0,68.0,13.87,1554322547
584,qaqortoq,gl,20.0,54.0,60.72,-46.03,30.2,30.2,16.11,1554321000
585,beringovskiy,ru,92.0,98.0,63.05,179.32,28.17,28.17,20.04,1554322705
587,busselton,au,56.0,50.0,-33.64,115.35,63.66,64.0,18.59,1554322584
588,tamiahua,mx,36.0,97.0,21.28,-97.45,72.81,72.81,6.62,1554322968
589,georgetown,sh,76.0,99.0,-7.93,-14.42,82.08,82.08,16.58,1554322957
590,hobart,au,40.0,80.0,-42.88,147.33,41.0,42.01,10.29,1554322635
591,bethel,us,1.0,74.0,60.79,-161.76,34.99,37.4,19.46,1554321360
592,punta arenas,cl,40.0,52.0,-53.16,-70.91,45.03,46.4,31.09,1554322348
593,geraldton,au,75.0,83.0,-28.77,114.6,71.6,71.6,13.87,1554319800
596,port alfred,za,12.0,95.0,-33.59,26.89,64.99,64.99,3.0,1554322608
597,mbinga,tz,0.0,100.0,-10.95,35.0,65.88,65.88,3.38,1554322970
599,darnah,ly,44.0,100.0,32.77,22.64,59.49,59.49,13.11,1554322690
600,kosh-agach,ru,32.0,45.0,49.99,88.66,23.94,23.94,6.06,1554322971
601,albany,au,75.0,100.0,-35.02,117.88,60.8,60.8,3.36,1554318000
602,meulaboh,id,24.0,100.0,4.14,96.13,78.93,78.93,4.16,1554322908
603,cape town,za,0.0,88.0,-33.93,18.42,61.5,64.99,3.36,1554322879
604,constitucion,cl,8.0,88.0,-35.33,-72.42,59.4,59.4,3.38,1554322919
605,east london,za,32.0,100.0,-33.02,27.91,72.0,72.0,25.75,1554322754
606,rikitea,pf,12.0,100.0,-23.12,-134.97,74.7,74.7,20.49,1554322858
607,bluff,nz,92.0,93.0,-46.6,168.33,48.0,48.0,1.01,1554322807
608,barrow,us,90.0,41.0,39.51,-90.4,58.26,63.0,9.17,1554322817
609,nykoping,se,0.0,66.0,58.75,17.01,38.03,41.0,10.29,1554321000
610,great yarmouth,gb,0.0,93.0,52.61,1.73,36.03,41.0,4.7,1554322918
611,lakes entrance,au,80.0,86.0,-37.88,147.99,56.97,57.99,2.48,1554322952
612,ushuaia,ar,75.0,70.0,-54.81,-68.31,44.6,44.6,27.51,1554318000
613,aquiraz,br,75.0,74.0,-3.9,-38.39,80.91,82.4,8.05,1554322086
614,shelburne,ca,75.0,44.0,44.08,-80.2,39.25,45.0,25.28,1554322715
615,ban tak,th,0.0,81.0,17.04,99.08,70.74,70.74,1.59,1554322973
616,ushuaia,ar,75.0,70.0,-54.81,-68.31,44.6,44.6,27.51,1554318000
617,moramanga,mg,80.0,100.0,-18.95,48.23,65.16,65.16,1.59,1554322974
618,half moon bay,us,75.0,72.0,37.46,-122.43,59.83,64.0,3.36,1554322681
619,avarua,ck,92.0,74.0,-21.21,-159.78,80.6,80.6,8.05,1554321600
620,alofi,nu,40.0,74.0,-19.06,-169.92,80.6,80.6,8.05,1554321600
621,east london,za,32.0,100.0,-33.02,27.91,72.0,72.0,25.75,1554322754
623,victor harbor,au,0.0,27.0,-35.55,138.62,69.33,73.4,10.29,1554322962
624,punta arenas,cl,40.0,52.0,-53.16,-70.91,45.03,46.4,31.09,1554322348
625,portland,au,92.0,96.0,-33.35,149.98,52.92,55.0,1.01,1554322943
627,cheney,us,90.0,93.0,47.49,-117.58,50.22,54.0,12.75,1554322968
628,kaitangata,nz,56.0,65.0,-46.28,169.85,50.58,50.58,6.4,1554322936
629,yellowknife,ca,20.0,59.0,62.45,-114.38,5.04,7.0,12.75,1554322545
630,puerto ayora,ec,40.0,66.0,-0.74,-90.35,85.91,87.8,14.99,1554322513
631,flinders,au,92.0,100.0,-34.58,150.85,62.74,66.0,12.75,1554322925
632,danane,ci,12.0,93.0,7.26,-8.15,73.44,73.44,3.27,1554322977
633,mahebourg,mu,75.0,88.0,-20.41,57.7,77.7,78.8,3.36,1554322743
634,provideniya,ru,24.0,100.0,64.42,-173.23,23.13,23.13,22.62,1554322977
635,kalundborg,dk,0.0,66.0,55.68,11.1,47.75,48.2,12.75,1554322951
636,albany,au,75.0,100.0,-35.02,117.88,60.8,60.8,3.36,1554318000
637,avarua,ck,92.0,74.0,-21.21,-159.78,80.6,80.6,8.05,1554321600
638,albany,au,75.0,100.0,-35.02,117.88,60.8,60.8,3.36,1554318000
639,yar-sale,ru,0.0,64.0,66.83,70.83,11.16,11.16,5.28,1554322944
640,hithadhoo,mv,36.0,100.0,-0.6,73.08,79.74,79.74,4.38,1554322880
641,lebu,cl,100.0,95.0,-37.62,-73.65,56.34,56.34,15.68,1554322852
643,arraial do cabo,br,0.0,65.0,-22.97,-42.02,82.4,82.4,13.87,1554318000
644,mar del plata,ar,24.0,39.0,-46.43,-67.52,66.15,66.15,16.8,1554322853
645,longyearbyen,sj,40.0,84.0,78.22,15.64,8.6,8.6,5.82,1554321000
646,kahului,us,40.0,61.0,20.89,-156.47,75.34,80.6,14.99,1554322777
647,port alfred,za,12.0,95.0,-33.59,26.89,64.99,64.99,3.0,1554322608
648,naze,jp,44.0,100.0,28.37,129.48,63.54,63.54,10.76,1554322961
649,axim,gh,12.0,96.0,4.87,-2.24,84.24,84.24,11.77,1554322935
650,provideniya,ru,24.0,100.0,64.42,-173.23,23.13,23.13,22.62,1554322977
651,yarada,in,0.0,100.0,17.65,83.27,83.16,83.16,14.67,1554322980
652,isangel,vu,64.0,100.0,-19.55,169.27,79.02,79.02,11.88,1554322887
653,cayenne,gf,75.0,69.0,4.94,-52.33,82.4,82.4,12.75,1554319800
654,hermanus,za,80.0,72.0,-34.42,19.24,61.0,61.0,2.93,1554322574
655,hithadhoo,mv,36.0,100.0,-0.6,73.08,79.74,79.74,4.38,1554322880
656,georgetown,sh,76.0,99.0,-7.93,-14.42,82.08,82.08,16.58,1554322957
657,katsuura,jp,20.0,69.0,33.93,134.5,39.2,39.2,6.93,1554318000
658,klaksvik,fo,92.0,80.0,62.23,-6.59,35.6,35.6,2.24,1554321000
659,college,us,1.0,34.0,64.86,-147.8,22.95,27.0,20.8,1554322618
660,rikitea,pf,12.0,100.0,-23.12,-134.97,74.7,74.7,20.49,1554322858
661,ushuaia,ar,75.0,70.0,-54.81,-68.31,44.6,44.6,27.51,1554318000
662,mahebourg,mu,75.0,88.0,-20.41,57.7,77.7,78.8,3.36,1554322743
663,los llanos de aridane,es,20.0,68.0,28.66,-17.92,59.31,64.4,4.7,1554322596
664,eureka,us,90.0,93.0,40.8,-124.16,54.75,55.99,3.36,1554322826
665,albany,au,75.0,100.0,-35.02,117.88,60.8,60.8,3.36,1554318000
666,castro,cl,90.0,93.0,-42.48,-73.76,51.8,51.8,14.99,1554318000
667,sitka,us,80.0,48.0,37.17,-99.65,64.99,64.99,14.0,1554322570
668,coihaique,cl,75.0,54.0,-45.58,-72.07,55.92,57.2,11.41,1554318000
670,ushuaia,ar,75.0,70.0,-54.81,-68.31,44.6,44.6,27.51,1554318000
672,jamestown,sh,92.0,100.0,-15.94,-5.72,76.77,76.77,18.92,1554322868
673,bredasdorp,za,44.0,93.0,-34.53,20.04,59.0,59.0,5.82,1554321600
675,dhidhdhoo,mv,56.0,100.0,6.88,73.1,80.46,80.46,5.39,1554322807
676,kapaa,us,75.0,60.0,22.08,-159.32,74.64,75.99,10.29,1554322705
678,yellowknife,ca,20.0,59.0,62.45,-114.38,5.04,7.0,12.75,1554322545
679,punta arenas,cl,40.0,52.0,-53.16,-70.91,45.03,46.4,31.09,1554322348
680,colon,mx,40.0,24.0,20.8,-100.05,78.8,78.8,20.8,1554320520
681,albany,au,75.0,100.0,-35.02,117.88,60.8,60.8,3.36,1554318000
682,east london,za,32.0,100.0,-33.02,27.91,72.0,72.0,25.75,1554322754
683,bluff,nz,92.0,93.0,-46.6,168.33,48.0,48.0,1.01,1554322807
684,provideniya,ru,24.0,100.0,64.42,-173.23,23.13,23.13,22.62,1554322977
685,creel,mx,0.0,17.0,27.75,-107.63,64.89,64.89,9.75,1554322986
686,atuona,pf,48.0,100.0,-9.8,-139.03,81.63,81.63,15.35,1554322711
687,puerto ayora,ec,40.0,66.0,-0.74,-90.35,85.91,87.8,14.99,1554322513
688,kapaa,us,75.0,60.0,22.08,-159.32,74.64,75.99,10.29,1554322705
689,tiksi,ru,80.0,77.0,71.64,128.87,23.67,23.67,6.85,1554322923
690,noshiro,jp,8.0,96.0,40.21,140.05,42.84,42.84,15.46,1554322987
691,port alfred,za,12.0,95.0,-33.59,26.89,64.99,64.99,3.0,1554322608
692,cape town,za,0.0,88.0,-33.93,18.42,61.5,64.99,3.36,1554322879
693,kavieng,pg,100.0,100.0,-2.57,150.8,80.1,80.1,7.18,1554322730
694,busselton,au,56.0,50.0,-33.64,115.35,63.66,64.0,18.59,1554322584
696,qaanaaq,gl,64.0,88.0,77.48,-69.36,11.97,11.97,5.95,1554322804
697,bathsheba,bb,40.0,58.0,13.22,-59.52,86.0,86.0,23.04,1554318000
698,ushuaia,ar,75.0,70.0,-54.81,-68.31,44.6,44.6,27.51,1554318000
700,quatre cocos,mu,75.0,88.0,-20.21,57.76,77.79,78.8,3.36,1554322743
702,waipawa,nz,68.0,92.0,-39.94,176.59,50.0,50.0,3.49,1554321976
703,hobart,au,40.0,80.0,-42.88,147.33,41.0,42.01,10.29,1554322635
704,ushuaia,ar,75.0,70.0,-54.81,-68.31,44.6,44.6,27.51,1554318000
705,leshukonskoye,ru,0.0,83.0,64.9,45.76,28.35,28.35,5.73,1554322990
706,dok kham tai,th,20.0,97.0,19.16,99.99,65.7,65.7,2.15,1554322990
707,peace river,ca,90.0,43.0,56.23,-117.29,33.8,33.8,12.75,1554318000
708,punta arenas,cl,40.0,52.0,-53.16,-70.91,45.03,46.4,31.09,1554322348
709,constitucion,mx,5.0,9.0,23.99,-104.67,76.5,77.0,14.99,1554322815
710,khatanga,ru,92.0,91.0,71.98,102.47,16.38,16.38,10.65,1554322726
711,cherskiy,ru,0.0,65.0,68.75,161.3,20.25,20.25,2.71,1554322746
712,atuona,pf,48.0,100.0,-9.8,-139.03,81.63,81.63,15.35,1554322711
713,parfino,ru,0.0,69.0,57.97,31.65,29.34,29.34,5.95,1554322991
714,thompson,ca,40.0,47.0,55.74,-97.86,15.8,15.8,10.29,1554318000
715,saint-joseph,re,0.0,69.0,-21.37,55.62,74.44,80.6,13.87,1554322564
716,sandpoint,us,90.0,75.0,48.28,-116.55,46.42,48.2,3.36,1554322967
717,canon city,us,12.0,96.0,39.46,-117.13,44.64,44.64,3.38,1554322992
718,anadyr,ru,0.0,78.0,64.73,177.51,14.0,14.0,4.47,1554322950
719,alakurtti,ru,76.0,66.0,66.96,30.34,33.01,33.01,4.0,1554322896
720,qaanaaq,gl,64.0,88.0,77.48,-69.36,11.97,11.97,5.95,1554322804
721,east london,za,32.0,100.0,-33.02,27.91,72.0,72.0,25.75,1554322754
723,cape town,za,0.0,88.0,-33.93,18.42,61.5,64.99,3.36,1554322879
724,dikson,ru,76.0,100.0,73.51,80.55,23.58,23.58,16.02,1554322742
725,ushuaia,ar,75.0,70.0,-54.81,-68.31,44.6,44.6,27.51,1554318000
726,saint george,bm,90.0,77.0,32.38,-64.68,68.0,68.0,13.87,1554322547
727,lompoc,us,90.0,77.0,34.64,-120.46,62.92,66.99,11.41,1554322783
728,kodiak,us,90.0,14.0,39.95,-94.76,63.48,68.0,14.99,1554322756
729,georgetown,sh,76.0,99.0,-7.93,-14.42,82.08,82.08,16.58,1554322957
730,provideniya,ru,24.0,100.0,64.42,-173.23,23.13,23.13,22.62,1554322977
731,ushuaia,ar,75.0,70.0,-54.81,-68.31,44.6,44.6,27.51,1554318000
732,butaritari,ki,92.0,100.0,3.07,172.79,77.67,77.67,1.59,1554322828
733,vangaindrano,mg,80.0,93.0,-23.35,47.6,69.12,69.12,1.7,1554322995
734,qaanaaq,gl,64.0,88.0,77.48,-69.36,11.97,11.97,5.95,1554322804
735,east london,za,32.0,100.0,-33.02,27.91,72.0,72.0,25.75,1554322754
736,mecca,sa,0.0,57.0,21.43,39.83,54.27,54.27,2.82,1554322858
737,ingham,au,80.0,92.0,-18.65,146.16,79.47,79.47,18.03,1554322996
738,iquitos,pe,75.0,319.0,-3.75,-73.25,42.8,42.8,5.82,1554318000
739,lukovetskiy,ru,0.0,55.0,64.29,41.92,35.6,35.6,6.71,1554319800
741,andros town,bs,75.0,61.0,24.73,-77.79,80.83,81.0,10.29,1554322655
742,saint-joseph,re,0.0,69.0,-21.37,55.62,74.44,80.6,13.87,1554322564
743,hobart,au,40.0,80.0,-42.88,147.33,41.0,42.01,10.29,1554322635
744,hithadhoo,mv,36.0,100.0,-0.6,73.08,79.74,79.74,4.38,1554322880
745,ushuaia,ar,75.0,70.0,-54.81,-68.31,44.6,44.6,27.51,1554318000
746,severo-kurilsk,ru,88.0,97.0,50.68,156.12,33.03,33.03,6.85,1554322709
747,albany,au,75.0,100.0,-35.02,117.88,60.8,60.8,3.36,1554318000
748,ushuaia,ar,75.0,70.0,-54.81,-68.31,44.6,44.6,27.51,1554318000
749,vardo,no,0.0,64.0,70.37,31.11,33.78,37.4,19.46,1554321000
